City_ID,City,Lat,Lng,Max Temp,Humidity,Cloudiness,Wind Speed,Country,Date
0,lebu,-37.6167,-73.65,12.14,75,3,6.66,CL,1701211098
1,saquarema,-22.92,-42.5103,24.08,93,98,6.97,BR,1701211098
2,songyang,34.4553,113.0281,5.55,39,100,2.52,CN,1701211098
3,akureyri,65.6835,-18.0878,-0.04,100,75,0.0,IS,1701211099
4,altamont,42.2068,-121.7372,9.87,42,0,1.54,US,1701211099
5,utrik,11.2278,169.8474,27.49,77,87,8.5,MH,1701211099
6,hotan,37.0997,79.9269,1.88,28,25,0.58,CN,1701211099
7,port lincoln,-34.7333,135.8667,16.77,77,65,7.32,AU,1701211099
8,kapa'a,22.0752,-159.319,22.18,88,100,5.14,US,1701211100
9,ibaiti,-23.8486,-50.1878,19.08,96,100,2.49,BR,1701211100
10,grytviken,-54.2811,-36.5092,-0.41,66,32,4.28,GS,1701211100
11,albany,42.6001,-73.9662,-1.54,68,55,0.89,US,1701210799
12,iqaluit,63.7506,-68.5145,-1.15,92,100,8.23,CA,1701211101
13,menongue,-14.6585,17.691,17.57,93,99,0.87,AO,1701211101
14,nantucket,41.2835,-70.0995,3.08,46,100,6.69,US,1701211101
15,barra de santo antonio,-9.4047,-35.5072,25.6,73,2,4.07,BR,1701211101
16,iskateley,67.6803,53.1512,-17.21,95,100,4.92,RU,1701211102
17,wellington,-41.2866,174.7756,13.81,77,75,8.23,NZ,1701210990
18,mirnyy,62.5353,113.9611,-17.65,77,92,4.02,RU,1701211102
19,mamuju,-2.6748,118.8885,26.18,84,100,1.1,ID,1701211102
20,qaqortoq,60.7167,-46.0333,-5.72,63,100,3.36,GL,1701211103
21,puerto natales,-51.7236,-72.4875,7.29,67,34,2.92,CL,1701211103
22,cockburn town,21.4612,-71.1419,27.24,71,61,5.07,TC,1701211004
23,yarmouth,41.7057,-70.2286,3.08,47,0,12.07,US,1701210836
24,khovd,48.0056,91.6419,-10.59,98,64,0.54,MN,1701211103
25,trondheim,63.4305,10.3951,-3.95,90,100,2.66,NO,1701211104
26,kapuskasing,49.4169,-82.4331,-11.95,79,100,3.09,CA,1701211104
27,longyearbyen,78.2186,15.6401,0.91,93,75,2.57,SJ,1701211104
28,pimentel,-6.8367,-79.9342,23.16,68,0,10.29,PE,1701211104
29,adamstown,-25.066,-130.1015,23.03,86,58,6.24,PN,1701211104
30,edinburgh of the seven seas,-37.0676,-12.3116,14.36,83,76,7.85,SH,1701211105
31,bredasdorp,-34.5322,20.0403,16.51,68,45,4.31,ZA,1701211105
32,yellowknife,62.456,-114.3525,-10.71,85,100,1.54,CA,1701211013
33,kurumkan,54.3,110.3,-16.6,82,30,0.45,RU,1701211105
34,ajdabiya,30.7554,20.2263,14.87,42,4,5.42,LY,1701211105
35,klyuchi,52.2667,79.1667,-1.41,70,100,3.36,RU,1701211106
36,puerto ayora,-0.7393,-90.3518,26.98,91,72,4.92,EC,1701211106
37,la ronge,55.1001,-105.2842,3.14,60,0,6.17,CA,1701211106
38,keningau,5.3378,116.1602,22.64,98,54,0.72,MY,1701211106
39,znamenka,52.4167,41.4311,-2.88,90,27,2.47,RU,1701211107
40,pont rouge,48.8833,-72.0825,-7.84,93,100,4.42,CA,1701211107
41,nar'yan-mar,67.6713,53.087,-17.16,95,100,4.92,RU,1701211107
42,monrovia,6.3005,-10.7969,24.87,85,99,2.24,LR,1701211107
43,st. john's,47.5649,-52.7093,9.82,98,100,14.92,CA,1701211020
44,bethel,41.3712,-73.414,0.76,52,0,4.12,US,1701211021
45,tiksi,71.6872,128.8694,-16.95,91,99,8.19,RU,1701211108
46,kalmunai,7.4167,81.8167,24.67,87,100,1.42,LK,1701211108
47,port-aux-francais,-49.35,70.2167,5.47,98,100,10.51,TF,1701211109
48,qujing,25.4833,103.7833,6.67,94,26,3.09,CN,1701211109
49,blackmans bay,-43.0167,147.3167,13.07,79,87,3.36,AU,1701211109
50,invercargill,-46.4,168.35,10.57,73,90,4.47,NZ,1701211109
51,anadyr,64.75,177.4833,-1.72,80,40,5.0,RU,1701211084
52,nagda,23.45,75.4167,17.92,80,0,1.24,IN,1701211110
53,ribeira grande,38.5167,-28.7,19.32,96,100,3.13,PT,1701211110
54,sosnovo-ozerskoye,52.5249,111.5418,-20.64,95,14,3.85,RU,1701211110
55,san carlos de bariloche,-41.1456,-71.3082,13.86,33,20,10.29,AR,1701211110
56,adrar,20.5022,-10.0711,18.5,14,100,3.52,MR,1701211110
57,taxisco,14.0708,-90.4631,27.17,78,85,1.31,GT,1701211111
58,tarboro,35.8968,-77.5358,8.21,36,0,2.06,US,1701211106
59,soe,-9.8607,124.284,23.96,58,100,0.16,ID,1701211111
60,lazaro cardenas,17.9583,-102.2,28.6,73,86,2.84,MX,1701211111
61,ushuaia,-54.8,-68.3,8.81,66,40,3.09,AR,1701211112
62,uvinza,-5.1036,30.3911,18.6,96,91,0.3,TZ,1701211112
63,luderitz,-26.6481,15.1594,18.87,73,44,10.75,NA,1701211112
64,soio,-6.1349,12.3689,25.36,83,83,1.72,AO,1701211112
65,avarua,-21.2078,-159.775,27.03,69,75,9.26,CK,1701211112
66,taoudenni,22.6783,-3.9836,20.58,16,89,2.96,ML,1701211113
67,krasnovishersk,60.4078,57.082,-3.91,93,100,1.35,RU,1701211074
68,olonkinbyen,70.9221,-8.7187,1.75,79,100,2.78,SJ,1701211113
69,port mathurin,-19.6833,63.4167,24.79,73,17,4.01,MU,1701211113
70,spartanburg,34.9496,-81.9321,10.24,26,0,3.6,US,1701210906
71,bilibino,68.0546,166.4372,-32.09,100,100,0.56,RU,1701211114
72,isafjordur,66.0755,-23.124,0.18,94,100,1.58,IS,1701211114
73,coquimbo,-29.9533,-71.3436,17.85,67,40,5.66,CL,1701211114
74,ruteng,-8.6136,120.4721,19.42,89,100,0.25,ID,1701211114
75,constantia,44.1833,28.65,10.39,86,99,7.68,RO,1701210877
76,katsuura,35.1333,140.3,13.14,56,0,6.53,JP,1701211115
77,saint-philippe,-21.3585,55.7679,22.77,83,36,3.91,RE,1701211115
78,karratha,-20.7377,116.8463,24.48,49,0,7.3,AU,1701211096
79,as samawah,31.332,45.2944,15.79,43,77,4.51,IQ,1701211115
80,saint-leu,-21.15,55.2833,22.48,90,15,0.89,RE,1701211116
81,oranjemund,-28.55,16.4333,16.04,88,87,8.33,NA,1701211116
82,lata,40.1629,-8.3327,16.56,96,95,1.95,PT,1701211116
83,chibougamau,49.9168,-74.3659,-6.21,86,100,4.63,CA,1701211116
84,porto novo,6.4965,2.6036,27.9,85,78,3.88,BJ,1701211116
85,kill devil hills,36.0307,-75.676,7.77,49,40,6.69,US,1701211034
86,ilulissat,69.2167,-51.1,-5.99,45,82,10.8,GL,1701211117
87,labrador city,52.9463,-66.9114,-7.05,86,75,0.0,CA,1701211117
88,wyndham,37.6985,-77.6125,3.73,34,0,6.69,US,1701211117
89,port augusta,-32.5,137.7667,18.52,64,90,7.17,AU,1701211118
90,nuriootpa,-34.4833,139.0,18.64,80,88,4.23,AU,1701211118
91,college,64.8569,-147.8028,-6.97,89,75,4.12,US,1701211118
92,port elizabeth,-33.918,25.5701,17.4,84,20,8.23,ZA,1701211118
93,ust-nera,64.5667,143.2,-21.57,99,100,1.41,RU,1701211119
94,bonny,4.4522,7.1681,26.82,82,100,3.94,NG,1701211119
95,coari,-4.085,-63.1414,26.4,73,96,1.29,BR,1701211119
96,inirida,3.8653,-67.9239,27.06,74,61,0.99,CO,1701211119
97,bandarbeyla,9.4942,50.8122,25.71,68,98,8.79,SO,1701211119
98,lihue,21.9789,-159.3672,21.77,88,100,5.14,US,1701211120
99,kodiak,57.79,-152.4072,4.73,81,100,7.2,US,1701211120
100,bikenibeu village,1.3673,173.1241,29.98,79,40,1.54,KI,1701211120
101,pisco,-13.7,-76.2167,21.03,78,0,11.83,PE,1701211120
102,boa vista,2.8197,-60.6733,30.99,51,20,5.66,BR,1701211121
103,manakara,-22.1333,48.0167,23.59,82,62,4.18,MG,1701211121
104,nemuro,43.3236,145.575,0.08,63,28,13.01,JP,1701211121
105,waitangi,-43.9535,-176.5597,14.34,92,95,3.58,NZ,1701211121
106,broken hill,-31.95,141.4333,18.31,65,50,8.69,AU,1701211121
107,limon,10.0,-83.0333,27.94,83,75,2.57,CR,1701211122
108,antsiranana,-12.2787,49.2917,24.85,86,70,3.95,MG,1701211122
109,hays,30.0502,-98.0336,16.23,33,25,1.79,US,1701211122
110,hammerfest,70.6634,23.6821,0.25,80,75,5.66,NO,1701211122
111,spas-demensk,54.4122,34.0226,-12.2,99,92,2.42,RU,1701211122
112,windham,41.8334,-72.0001,-0.01,49,37,1.34,US,1701211123
113,fiambala,-27.6871,-67.6149,29.32,35,0,4.69,AR,1701211123
114,troitsko-pechorsk,62.7084,56.1964,-10.73,91,87,2.24,RU,1701211123
115,mpika,-11.8343,31.4529,18.75,83,94,1.23,ZM,1701211123
116,aasiaat,68.7098,-52.8699,-9.72,66,98,9.04,GL,1701211123
117,papatowai,-46.5619,169.4708,11.16,54,87,5.8,NZ,1701211124
118,aykhal,66.0,111.5,-17.13,95,100,6.62,RU,1701211124
119,macia,-25.0269,33.0989,23.33,75,33,1.03,MZ,1701211124
120,nizao,18.25,-70.2,29.04,78,7,3.44,DO,1701211124
121,lorengau,-2.0226,147.2712,28.87,71,100,1.15,PG,1701211124
122,mejit,10.2753,170.8646,27.13,73,96,7.41,MH,1701211125
123,atafu village,-8.5421,-172.5159,26.44,85,100,6.96,TK,1701211125
124,jamestown,42.097,-79.2353,-2.23,94,100,6.17,US,1701210942
125,lazarevskoye,43.9061,39.3331,7.28,60,69,6.69,RU,1701211125
126,bayganin,48.6947,55.8742,-0.33,71,100,7.83,KZ,1701211125
127,rafraf,37.1904,10.1837,16.17,77,79,7.96,TN,1701211126
128,alofi,-19.0595,-169.9187,28.94,65,75,4.63,NU,1701211126
129,nova sintra,14.8667,-24.7167,21.49,73,7,5.6,CV,1701211126
130,hermanus,-34.4187,19.2345,17.12,70,59,3.73,ZA,1701211126
131,santa fe,-31.6333,-60.7,30.0,67,8,2.68,AR,1701211126
132,lycksele,64.5954,18.6735,-4.76,86,100,4.12,SE,1701210942
133,novaya igirma,57.1334,103.9112,-22.56,100,30,0.82,RU,1701211127
134,brisas de zicatela,15.8369,-97.0419,30.29,51,0,4.12,MX,1701211127
135,gemena,3.25,19.7667,21.64,99,100,0.99,CD,1701211127
136,hithadhoo,-0.6,73.0833,27.72,77,96,4.5,MV,1701211127
137,zharkent,44.1628,80.0,7.05,47,8,0.96,KZ,1701211128
138,chernyshevsk,52.5243,117.0174,-23.44,96,87,0.22,RU,1701211128
139,mizdah,31.4451,12.9801,12.62,36,45,3.8,LY,1701211128
140,vorgashor,67.5833,63.95,-12.84,90,100,3.01,RU,1701211128
141,ulladulla,-35.35,150.4667,19.41,95,100,9.4,AU,1701211128
142,caleta olivia,-46.4393,-67.5281,18.96,29,46,14.04,AR,1701211129
143,peniche,39.3558,-9.3811,17.94,94,78,5.34,PT,1701211129
144,punta arenas,-53.15,-70.9167,10.06,50,20,11.32,CL,1701211129
145,fort st. john,56.2499,-120.8529,4.94,56,20,9.26,CA,1701211129
146,new norfolk,-42.7826,147.0587,13.73,85,98,2.11,AU,1701211129
147,udachny,66.4167,112.4,-17.53,84,100,10.45,RU,1701211130
148,maua,-23.6678,-46.4614,24.89,90,99,1.26,BR,1701211130
149,lakehills,29.6047,-98.9431,17.03,40,42,2.54,US,1701211130
150,vila franca do campo,37.7167,-25.4333,19.23,99,92,2.02,PT,1701211130
151,cabo san lucas,22.8909,-109.9124,29.23,62,0,4.12,MX,1701211115
152,inarajan village,13.2736,144.7484,29.11,85,19,9.21,GU,1701211131
153,nuku'alofa,-21.1333,-175.2,29.19,89,40,5.66,TO,1701211131
154,kidal,18.4411,1.4078,23.96,12,0,3.78,ML,1701211131
155,tazovsky,67.4667,78.7,-16.46,96,100,3.84,RU,1701211131
156,hamilton,39.1834,-84.5333,-2.9,59,0,2.06,US,1701211131
157,klaksvik,62.2266,-6.589,2.51,60,100,8.06,FO,1701211132
158,dudinka,69.4058,86.1778,-26.54,100,33,1.42,RU,1701211132
159,srikakulam,18.3,83.9,20.47,87,91,2.61,IN,1701211132
160,stanley,54.868,-1.6985,0.44,86,20,2.57,GB,1701211132
161,kayangel,8.0823,134.7173,28.81,75,98,8.9,PW,1701211132
162,rabaul,-4.1967,152.1721,27.86,75,51,1.18,PG,1701211133
163,yeppoon,-23.1333,150.7333,26.88,66,1,2.71,AU,1701211133
164,jining,35.405,116.5814,4.66,36,100,6.69,CN,1701210859
165,fauske,67.2588,15.3918,-0.98,74,94,3.34,NO,1701211133
166,talnakh,69.4865,88.3972,-23.73,97,31,1.86,RU,1701211133
167,yatou,37.15,122.3833,0.31,72,95,2.61,CN,1701211134
168,fort mcmurray,56.7268,-111.381,2.77,64,0,4.63,CA,1701211134
169,kudahuvadhoo,2.6708,72.8944,27.57,78,100,4.14,MV,1701211134
170,kristiansund,63.1115,7.732,-3.64,68,20,6.17,NO,1701211134
171,suwayr,30.1171,40.3893,13.52,48,100,3.03,SA,1701211134
172,zyryanovsk,49.7386,84.2719,-14.0,94,33,0.71,KZ,1701211135
173,fale old settlement,-9.3852,-171.2468,28.44,73,100,5.91,TK,1701211135
174,uturoa,-16.7333,-151.4333,26.9,79,67,8.87,PF,1701211135
175,bafq,31.6128,55.4107,13.66,34,0,1.95,IR,1701211135
176,port alfred,-33.5906,26.891,18.43,79,100,3.58,ZA,1701211135
177,hawaiian paradise park,19.5933,-154.9731,27.71,78,75,6.69,US,1701211136
178,kaitong,44.8135,123.15,-14.73,78,96,3.95,CN,1701211136
179,polyarnyy,69.1989,33.4478,-2.65,87,96,7.24,RU,1701211136
180,inhambane,-23.865,35.3833,24.24,84,33,4.89,MZ,1701211136
181,ulanhot,46.0833,122.0833,-14.71,59,95,5.93,CN,1701211136
182,kralendijk,12.15,-68.2667,28.99,79,20,7.2,BQ,1701211137
183,san luis de la loma,17.2706,-100.8939,27.49,79,100,1.09,MX,1701211137
184,tsiombe,-25.3,45.4833,22.96,96,49,0.82,MG,1701211137
185,portland,45.5234,-122.6762,8.88,58,20,5.66,US,1701211146
186,chonchi,-42.6128,-73.8092,12.56,81,88,3.41,CL,1701211137
187,chernyshevskiy,63.0128,112.4714,-27.11,94,75,1.38,RU,1701211138
188,gizo,-8.103,156.8419,28.47,73,90,0.37,SB,1701211138
189,cayeli,41.0923,40.7292,9.59,57,66,2.72,TR,1701211138
190,west island,-12.1568,96.8225,25.99,65,75,5.14,CC,1701211138
191,yigo village,13.5361,144.8886,28.19,81,0,8.75,GU,1701211138
192,kailua-kona,19.6406,-155.9956,28.06,73,40,5.66,US,1701211139
193,nabire,-3.3667,135.4833,24.47,91,100,1.17,ID,1701211139
194,whitehorse,60.7161,-135.0538,-3.57,68,20,0.0,CA,1701211012
195,newman,37.3138,-121.0208,20.16,30,7,0.45,US,1701211139
196,mandera,3.9366,41.867,28.22,56,58,3.65,KE,1701211139
197,labin,45.095,14.1197,7.74,79,71,3.96,HR,1701211140
198,amga,60.8953,131.9608,-24.96,97,100,0.84,RU,1701211140
199,san antonio de pale,-1.4014,5.6325,26.79,81,25,3.84,GQ,1701211140
200,saipan,15.1355,145.701,28.39,78,40,7.2,MP,1701211140
201,weno,7.4515,151.8468,28.97,74,75,3.6,FM,1701211140
202,xianju,28.85,120.7333,8.04,75,53,1.39,CN,1701211141
203,west bay,19.3667,-81.4167,29.04,79,20,6.17,KY,1701211141
204,dhidhdhoo,6.8833,73.1,27.94,71,93,0.17,MV,1701211141
205,midvagur,62.0511,-7.1939,2.46,69,100,2.06,FO,1701211141
206,san patricio,28.017,-97.5169,16.05,38,70,1.77,US,1701211141
207,bereeda,11.8704,51.0579,25.66,67,74,3.4,SO,1701211142
208,ishigaki,24.3448,124.1572,23.07,68,75,5.14,JP,1701211142
209,vilyuchinsk,52.9306,158.4028,-8.37,76,100,3.62,RU,1701211142
210,petropavlovsk-kamchatsky,53.0452,158.6483,-9.19,86,75,5.0,RU,1701211143
211,daru,-9.0763,143.2092,30.07,67,99,1.18,PG,1701211143
212,howard springs,-12.497,131.047,31.04,92,54,2.77,AU,1701211143
213,zawadzkie,50.605,18.4847,-2.84,89,100,3.74,PL,1701211143
214,manokwari,-0.8667,134.0833,27.04,75,100,0.64,ID,1701211143
215,epernay,49.05,3.95,4.53,89,81,2.65,FR,1701211144
216,wailua homesteads,22.0669,-159.378,21.44,88,100,5.14,US,1701211144
217,nagqu,31.5,92.0,-5.23,61,100,0.39,CN,1701211144
218,nova xavantina,-14.6667,-52.35,29.25,45,48,1.83,BR,1701211144
219,minas de marcona,-15.2119,-75.1103,15.87,77,12,7.13,PE,1701211145
220,manicore,-5.8092,-61.3003,24.42,86,84,0.62,BR,1701211145
221,coahuayana de hidalgo,18.7,-103.6583,28.86,64,100,1.3,MX,1701211145
222,margaret river,-33.95,115.0667,17.39,78,1,0.53,AU,1701211145
223,tidjikja,18.5564,-11.4271,21.53,16,85,4.17,MR,1701211146
224,turkmenbasy,40.0222,52.9552,3.43,87,0,0.0,TM,1701211146
225,enewetak,11.3474,162.3373,27.79,72,68,10.12,MH,1701211146
226,springbok,-29.6643,17.8865,12.8,69,53,2.55,ZA,1701211146
227,praia da vitoria,38.7333,-27.0667,19.31,100,75,5.27,PT,1701211146
228,westport,41.1415,-73.3579,1.63,48,0,9.77,US,1701211059
229,ghadamis,30.1337,9.5007,15.28,33,96,3.04,LY,1701211147
230,kharp,66.8014,65.8081,-8.65,93,100,3.9,RU,1701211147
231,keflavik,64.0049,-22.5624,1.95,93,75,4.12,IS,1701211147
232,uyuni,-20.4597,-66.825,17.99,12,1,2.28,BO,1701211148
233,flying fish cove,-10.4217,105.6791,26.07,65,97,7.41,CX,1701211148
234,heroica caborca,30.7167,-112.15,22.73,36,28,3.76,MX,1701211148
235,natal,-5.795,-35.2094,26.12,83,40,3.09,BR,1701211149
236,nadi,-17.8,177.4167,30.0,74,20,6.17,FJ,1701211019
237,nizhniy odes,63.6445,54.856,-11.33,93,82,2.67,RU,1701211149
238,bonthe,7.5264,-12.505,26.91,80,100,1.53,SL,1701211149
239,inari,68.906,27.0288,-1.89,97,95,4.86,FI,1701211149
240,vadso,70.0744,29.7487,1.09,69,75,9.26,NO,1701211150
241,georgetown,5.4112,100.3354,26.68,87,20,1.03,MY,1701211150
242,tromso,69.6496,18.957,-0.99,64,0,4.12,NO,1701211150
243,berezna,51.5716,31.7846,-1.6,97,100,7.67,UA,1701211150
244,saudarkrokur,65.7461,-19.6394,1.88,91,95,1.71,IS,1701211091
245,mahina,-17.5065,-149.489,29.87,70,75,4.12,PF,1701211151
246,kununurra,-15.7667,128.7333,28.99,79,41,3.09,AU,1701210987
247,whitestown,39.9973,-86.3458,-4.12,64,0,2.57,US,1701211151
248,lospalos,-8.5186,127.0025,27.25,64,51,1.33,TL,1701211151
249,palikir - national government center,6.9248,158.1611,25.47,94,100,3.6,FM,1701211152
250,chumphon,10.3333,98.8333,20.64,96,98,1.18,TH,1701211152
251,fortuna,40.5982,-124.1573,18.51,39,20,4.63,US,1701211152
252,leshan,29.5623,103.7639,15.31,77,100,1.19,CN,1701211152
253,labuan,5.2767,115.2417,26.2,89,20,1.03,MY,1701211153
254,banamba,13.55,-7.45,25.04,19,0,3.72,ML,1701211153
255,nogliki,51.8333,143.1667,-14.81,79,100,4.02,RU,1701211046
256,merizo village,13.2658,144.6691,28.88,85,36,9.17,GU,1701211153
257,al ghayzah,16.2079,52.176,24.75,70,72,1.14,YE,1701211154
258,carutapera,-1.195,-46.02,26.39,81,34,3.59,BR,1701211154
259,khabary,53.6259,79.5345,-2.82,69,100,4.93,RU,1701211154
260,chinde,26.8418,88.0763,12.28,63,98,2.11,NP,1701211154
261,dhuusamarreeb,5.535,46.3861,24.06,73,100,5.02,SO,1701211155
262,thompson,55.7435,-97.8558,-11.91,85,100,1.54,CA,1701211155
263,sitka,57.0531,-135.33,5.94,81,40,0.0,US,1701211155
264,piotrkow trybunalski,51.4055,19.7032,-4.34,78,100,3.97,PL,1701211155
265,codrington,-38.2667,141.9667,15.52,84,100,9.56,AU,1701211156
266,sao gabriel da cachoeira,-0.1303,-67.0892,23.23,99,97,0.31,BR,1701211156
267,sao joao da barra,-21.6403,-41.0511,26.05,93,98,5.17,BR,1701211156
268,xining,36.6167,101.7667,-3.6,62,18,0.85,CN,1701211156
269,badger,64.8,-147.5333,-7.02,91,40,4.12,US,1701210869
270,quincy,42.2529,-71.0023,1.67,44,76,1.34,US,1701211125
271,alaghsas,17.0187,8.0168,26.52,19,47,3.67,NE,1701211157
272,tura,25.5198,90.2201,17.59,71,96,1.31,IN,1701211157
273,kasongo-lunda,-6.4667,16.8167,20.24,99,98,0.51,CD,1701211157
274,fort bragg,35.139,-79.006,9.91,38,0,4.12,US,1701211158
275,farmville,37.3021,-78.3919,4.32,32,0,0.0,US,1701211158
276,berryville,36.3648,-93.568,9.56,60,31,2.19,US,1701211158
277,viedma,-40.8135,-62.9967,18.15,74,88,5.82,AR,1701211103
278,livingston,55.9029,-3.5226,1.78,80,0,2.06,GB,1701211158
279,erdenet,49.0333,104.0833,-19.51,99,42,1.78,MN,1701211159
280,saldanha,-33.0117,17.9442,14.03,73,1,7.83,ZA,1701211159
281,wewak,-3.5534,143.6268,27.45,81,87,1.67,PG,1701211159
282,eraan,9.0629,117.7016,26.57,81,60,2.15,PH,1701211159
283,guerrero negro,27.9769,-114.0611,20.34,58,100,5.07,MX,1701211160
284,jutai,-5.1833,-68.9,26.36,83,87,1.5,BR,1701211160
285,chardara,41.2547,67.9692,15.36,38,97,2.91,KZ,1701211160
286,colonia,50.9333,6.95,2.14,85,0,3.09,DE,1701211160
287,manadhoo,5.7667,73.3833,28.11,77,100,5.38,MV,1701211161
288,villa vasquez,19.7411,-71.4464,25.72,79,71,4.79,DO,1701211161
289,azovo,54.6997,73.0237,-5.14,84,99,5.1,RU,1701211161
290,n'dalatando,-9.2978,14.9116,18.12,99,100,0.48,AO,1701211161
291,villa gesell,-37.2639,-56.973,19.1,93,49,9.41,AR,1701211161
292,fallsburg,41.732,-74.6013,-2.53,64,36,6.56,US,1701211162
293,bardai,11.65,7.2333,23.95,29,21,3.5,NG,1701211162
294,christchurch,-43.5333,172.6333,14.39,60,100,5.14,NZ,1701210823
295,ilhabela,-23.7781,-45.3581,23.65,96,100,4.14,BR,1701211162
296,yulinshi,38.2906,109.7494,-6.37,28,0,4.69,CN,1701211155
297,kabo,7.6994,18.629,27.43,55,64,1.52,CF,1701211163
298,santa ana,33.7456,-117.8678,24.78,30,0,3.6,US,1701211163
299,leh,34.1667,77.5833,-2.11,67,48,1.13,IN,1701211163
300,la'ie,21.6477,-157.9253,27.47,83,96,0.89,US,1701211164
301,tupiza,-21.45,-65.7167,19.47,50,51,5.32,BO,1701211164
302,mirny,62.5353,113.9611,-17.65,77,92,4.02,RU,1701211164
303,brookings,44.3114,-96.7984,4.0,56,0,6.17,US,1701210938
304,sumbawa besar,-8.5,117.4333,25.56,83,100,1.39,ID,1701211164
305,aroma,15.8167,36.1333,24.11,71,0,5.01,SD,1701211165
306,askiz,53.1319,90.5264,-12.3,97,99,0.67,RU,1701211165
307,borba,-4.3878,-59.5939,27.22,70,70,1.16,BR,1701211165
308,sinop,41.7711,34.8709,3.95,54,100,8.71,TR,1701211165
309,sinabang,2.4803,96.3801,26.25,84,100,3.28,ID,1701211165
310,wasco,35.5941,-119.341,21.9,17,0,0.0,US,1701211166
311,nizhnesortymskiy,62.4397,71.7603,-2.07,92,100,4.27,RU,1701211166
312,gornopravdinsk,60.05,69.9,-2.08,80,100,3.37,RU,1701211166
313,santyoku,37.4406,129.1708,1.59,55,24,3.9,KR,1701211166
314,crane,31.3974,-102.3501,13.0,44,90,4.79,US,1701211167
315,belgrade,44.804,20.4651,4.81,92,0,3.6,RS,1701211016
316,primero de mayo,-32.2552,-58.4228,28.23,68,4,3.47,AR,1701211167
317,beledweyne,4.7358,45.2036,25.62,61,100,4.46,SO,1701211167
318,san juan del sur,11.2529,-85.8705,31.12,70,20,3.09,NI,1701211167
319,torghay,49.6339,63.4981,6.2,75,100,2.85,KZ,1701211168
320,howrah,22.5892,88.3103,23.0,78,20,2.06,IN,1701211168
321,east london,-33.0153,27.9116,19.29,76,100,10.12,ZA,1701210960
322,cadale,2.7603,46.3222,27.15,76,84,6.27,SO,1701211168
323,lianzhou,24.7811,112.3825,13.8,81,6,0.12,CN,1701211168
324,aripuana,-9.1667,-60.6333,26.95,67,78,0.87,BR,1701211169
325,taltal,-25.4,-70.4833,19.5,69,21,3.06,CL,1701211169
326,el calafate,-50.3408,-72.2768,8.83,56,11,4.45,AR,1701211169
327,ekenas,59.9736,23.4339,-0.06,78,99,3.62,FI,1701211169
328,vila velha,-20.3297,-40.2925,26.08,84,75,4.63,BR,1701211070
329,mareeba,-17.0,145.4333,28.6,50,79,0.76,AU,1701211170
330,veraval,20.9,70.3667,21.83,67,0,4.74,IN,1701211170
331,inverloch,-38.6333,145.7167,15.11,94,100,11.11,AU,1701211170
332,tingi,-11.3,35.0333,20.25,74,82,1.67,TZ,1701211170
333,susuman,62.7833,148.1667,-29.75,100,100,0.25,RU,1701211171
334,acapulco de juarez,16.8634,-99.8901,29.9,79,75,3.6,MX,1701211086
335,khanty-mansiysk,61.0042,69.0019,-2.94,74,0,3.13,RU,1701211171
336,nyala,12.05,24.8833,23.78,27,5,6.33,SD,1701211171
337,hoemul-li,41.4339,129.67,-3.79,33,0,4.22,KP,1701211172
338,zhigalovo,54.8097,105.1578,-21.85,99,90,0.53,RU,1701211172
339,tual,-5.6667,132.75,28.51,71,100,1.24,ID,1701211172
340,atamyrat,37.8357,65.2106,18.02,31,100,3.14,TM,1701211172
341,salaverry,-8.2333,-78.9667,20.21,86,59,4.26,PE,1701211172
342,bonanza,14.0289,-84.591,24.16,89,30,1.65,NI,1701211173
343,tagiura,32.8817,13.3506,18.34,38,66,6.41,LY,1701211173
344,darwin,-12.4611,130.8418,31.08,78,40,3.09,AU,1701210981
345,lompoc,34.6391,-120.4579,21.08,50,0,4.63,US,1701211052
346,mpophomeni,-29.5682,30.1862,18.83,95,98,0.4,ZA,1701211173
347,arkhara,49.4212,130.0842,-24.86,100,98,0.73,RU,1701211174
348,rio grande,-32.035,-52.0986,23.06,87,27,6.54,BR,1701211174
349,sao vicente,-23.9631,-46.3919,28.1,26,96,1.91,BR,1701211174
350,ixtapa,20.7,-105.2,29.01,70,40,5.66,MX,1701211174
351,sittwe,20.15,92.9,22.01,80,95,2.62,MM,1701211175
352,queenstown,-31.8976,26.8753,12.94,80,97,4.27,ZA,1701211175
353,brak,27.5496,14.2714,14.64,32,0,2.01,LY,1701211175
354,isla mujeres,21.2311,-86.731,27.03,71,96,9.54,MX,1701211175
355,zhangjiajie,29.1294,110.4783,12.09,77,46,0.89,CN,1701211175
356,miquelon,47.0975,-56.3814,4.63,72,91,11.67,PM,1701211176
357,as sulayyil,20.4607,45.5779,21.14,35,6,2.9,SA,1701211176
358,whangarei,-35.7317,174.3239,19.74,51,74,3.63,NZ,1701211014
359,galesong,-5.3166,119.3661,24.01,76,89,2.11,ID,1701211176
360,seven pagodas,12.6264,80.1722,25.59,88,99,3.05,IN,1701211177
361,corowa,-36.0333,146.3833,18.65,96,100,2.67,AU,1701211177
362,kapsan-up,41.0903,128.2933,-15.58,83,15,0.95,KP,1701211177
363,barvinkove,48.9097,37.0205,2.48,89,100,6.9,UA,1701211177
364,aguilar,37.5148,-4.6572,12.65,82,44,1.34,ES,1701211177
365,alice springs,-23.7,133.8833,24.75,36,100,3.6,AU,1701211178
366,campo gallo,-26.5833,-62.85,31.14,49,4,3.43,AR,1701211178
367,plastun,44.7561,136.2939,-12.19,54,3,3.99,RU,1701211178
368,mitsamiouli,-11.3847,43.2844,26.92,80,26,4.58,KM,1701211178
369,wanlaweyn,2.6185,44.8938,25.29,74,90,4.71,SO,1701211179
370,itoman,26.1247,127.6694,21.43,73,20,3.09,JP,1701211179
371,villanueva,15.3167,-88.0,29.55,62,20,5.14,HN,1701211130
372,sisimiut,66.9395,-53.6735,-5.43,65,97,6.52,GL,1701211179
373,birjand,32.8663,59.2211,7.26,61,0,2.06,IR,1701211180
374,afaahiti,-17.75,-149.2833,28.93,83,100,10.1,PF,1701211180
375,mosjoen,65.836,13.1908,0.23,86,20,1.54,NO,1701211180
376,sao jose da coroa grande,-8.8978,-35.1478,25.27,75,7,4.25,BR,1701211180
377,moundou,8.5667,16.0833,27.94,32,100,0.68,TD,1701211181
378,tabou,4.423,-7.3528,25.73,85,96,2.35,CI,1701211181
379,kaiapoi,-43.3783,172.6401,14.48,63,100,5.14,NZ,1701211181
380,tocopilla,-22.092,-70.1979,20.45,69,27,5.48,CL,1701211181
381,touros,-5.1989,-35.4608,26.3,76,100,5.34,BR,1701211181
382,nsanje,-16.92,35.262,26.27,64,65,1.51,MW,1701211182
383,tambopata,-12.7333,-69.1833,27.94,83,40,2.57,PE,1701211182
384,ussel,45.55,2.3167,-0.07,72,100,0.94,FR,1701211182
385,serebryanyye prudy,54.4692,38.721,-13.79,98,37,2.11,RU,1701211182
386,huanren,41.2647,125.3667,-10.04,73,37,1.02,CN,1701211182
387,kirensk,57.7853,108.1119,-17.24,97,100,0.89,RU,1701211183
388,anna regina,7.2644,-58.5077,25.93,85,7,3.38,GY,1701211183
389,lasem,-6.6922,111.4527,25.49,85,100,2.11,ID,1701211183
390,lubao,14.9167,120.55,25.84,81,94,3.69,PH,1701211183
391,itabira,-19.6192,-43.2269,19.98,97,100,1.09,BR,1701211082
392,agdas,40.65,47.4761,-0.07,78,1,1.97,AZ,1701211184
393,bethanie,-26.4833,17.15,20.67,42,100,2.49,NA,1701211184
394,olyokminsk,60.3736,120.4264,-19.38,94,99,3.02,RU,1701210922
395,del rio,29.3627,-100.8968,18.06,34,0,4.63,US,1701211184
396,san-pedro,4.7485,-6.6363,25.8,86,57,2.45,CI,1701211185
397,qamdo,31.1667,97.2333,-7.35,51,51,2.07,CN,1701211185
398,tanout,14.9709,8.8879,24.77,25,59,4.56,NE,1701211185
399,xilin hot,43.9667,116.0333,-19.62,86,6,4.93,CN,1701211186
400,taro,-8.3862,115.28,22.0,87,50,0.17,ID,1701211186
401,um jar al gharbiyya,13.8013,32.4078,28.24,31,0,4.75,SD,1701211186
402,tommot,58.9564,126.2925,-15.97,92,100,4.84,RU,1701211187
403,palmer,42.1584,-72.3287,0.65,44,87,0.89,US,1701211187
404,kyren,51.6828,102.1408,-18.35,86,48,0.52,RU,1701211187
405,rundu,-17.9333,19.7667,21.64,64,31,2.22,NA,1701211187
406,hurghada,27.2574,33.8129,19.02,42,0,3.6,EG,1701211188
407,remire-montjoly,4.9167,-52.2667,28.02,78,20,3.09,GF,1701211188
408,pohang,36.0322,129.365,1.57,76,21,2.66,KR,1701210950
409,port saint john's,-31.6229,29.5448,20.57,82,94,8.49,ZA,1701211188
410,cova figueira,14.8905,-24.2934,21.79,77,5,5.06,CV,1701211188
411,inga,-7.2808,-35.6044,26.25,74,61,4.31,BR,1701211189
412,ta`u,-14.2336,-169.5144,27.53,80,100,7.61,AS,1701211189
413,seaside,36.6111,-121.8516,20.21,58,0,2.68,US,1701211189
414,greymouth,-42.4667,171.2,13.52,81,96,2.26,NZ,1701211189
415,dauphin,51.1494,-100.0502,3.08,60,0,11.32,CA,1701211189
416,maloye ganyushkino,46.6,49.2667,4.05,91,96,4.41,KZ,1701211190
417,ziro,27.6333,93.8333,4.26,67,51,1.16,IN,1701211190
418,buurhakaba,2.8026,44.0781,24.5,78,83,3.16,SO,1701211190
419,barclayville,4.6797,-8.2339,25.44,85,86,1.29,LR,1701211190
420,tymovskoye,50.8456,142.655,-13.04,92,100,3.37,RU,1701211190
421,kijang,35.2442,129.2139,-0.15,59,70,1.65,KR,1701211191
422,nouadhibou,20.931,-17.0347,19.99,49,0,4.12,MR,1701211191
423,khanpur mahar,27.8436,69.4137,17.09,32,1,3.6,PK,1701211191
424,rostovka,55.3842,71.8891,-3.84,85,97,4.85,RU,1701211191
425,sorong,-0.8833,131.25,26.44,87,100,2.44,ID,1701211192
426,carnarvon,-24.8667,113.6333,21.71,61,61,5.82,AU,1701211192
427,saint-pierre,-21.3393,55.4781,22.82,64,7,2.57,RE,1701211192
428,bamboo flat,11.7,92.7167,28.05,78,75,3.6,IN,1701211192
429,virginia,37.5481,-77.4467,4.08,32,0,8.75,US,1701210718
430,port macquarie,-31.4333,152.9167,24.38,75,100,5.21,AU,1701211192
431,gondia,21.45,80.2,15.68,94,6,1.14,IN,1701211193
432,south hedland,-20.4089,118.5983,25.96,69,100,5.14,AU,1701211193
433,haiku-pauwela,20.9219,-156.3051,26.69,73,75,3.6,US,1701211193
434,kingston,17.997,-76.7936,27.53,78,75,4.12,JM,1701210950
435,feicheng,35.2606,117.9675,4.39,63,100,2.35,CN,1701211193
436,nangwa,-4.4667,35.45,13.56,85,41,2.3,TZ,1701211194
437,nenjiang,49.1833,125.2167,-18.41,94,98,1.6,CN,1701211156
438,mount gambier,-37.8333,140.7667,15.22,85,100,6.21,AU,1701211194
439,merritt,50.1123,-120.7942,0.74,65,41,0.54,CA,1701211194
440,arraial do cabo,-22.9661,-42.0278,23.98,88,40,8.23,BR,1701211194
441,mombetsu,44.3525,143.3525,-1.66,72,73,11.26,JP,1701211195
442,sandnessjoen,66.0217,12.6316,0.23,59,20,3.6,NO,1701211195
443,yuzhno-kurilsk,44.0306,145.8556,3.54,74,83,14.71,RU,1701211195
444,harpalpur,25.2884,79.3347,17.34,82,2,1.22,IN,1701211195
445,okhotsk,59.3833,143.3,-11.73,92,100,2.97,RU,1701211196
446,byalynichy,53.9983,29.7126,-7.48,93,100,4.04,BY,1701211196
447,courtenay,49.6866,-124.9936,6.18,81,100,1.03,CA,1701211196
448,kalianget,-7.05,113.9333,27.3,78,99,0.41,ID,1701211196
449,schuyler,42.4167,-76.883,-1.22,72,64,4.47,US,1701211196
450,prince rupert,54.3161,-130.3201,8.05,92,100,3.6,CA,1701210911
451,vilhena,-12.7406,-60.1458,24.12,83,40,2.06,BR,1701211197
452,egilsstadir,65.2653,-14.3948,3.95,75,75,2.06,IS,1701211197
453,huadian,42.9633,126.7478,-13.3,89,93,6.03,CN,1701211197
454,robertsport,6.7533,-11.3686,26.67,79,95,0.41,LR,1701211197
455,kashin,57.3592,37.6081,-11.0,97,93,3.49,RU,1701211198
456,'ain abid,36.2319,6.9433,9.43,73,12,2.0,DZ,1701211198
457,gorontalo,0.5412,123.0595,25.43,91,100,1.02,ID,1701211198
458,langtoucun,40.0261,124.3286,-4.53,36,98,3.28,CN,1701211199
459,awjilah,29.1081,21.2869,14.09,36,0,3.36,LY,1701211199
460,ribe,55.3305,8.7697,-3.93,66,100,4.41,DK,1701211199
461,severobaykal'sk,55.65,109.3167,-14.16,76,13,2.72,RU,1701211199
462,kavaratti,10.5669,72.642,28.53,75,86,3.7,IN,1701211199
463,keelung,25.1283,121.7419,22.27,76,24,6.48,TW,1701211200
464,bousso,10.4795,16.7117,27.54,25,59,0.91,TD,1701211200
465,ushachy,55.1786,28.6035,-10.32,96,91,1.98,BY,1701211200
466,zapolyarnyy,69.4154,30.8136,-0.4,96,95,6.93,RU,1701211201
467,iquique,-20.2208,-70.1431,21.02,76,18,2.97,CL,1701211439
468,oak grove,45.4168,-122.6401,8.39,58,20,5.66,US,1701211201
469,hami,42.8,93.45,1.37,33,6,0.47,CN,1701211201
470,ketchikan,55.3422,-131.6461,7.26,76,20,3.09,US,1701211202
471,comandante fontana,-25.3345,-59.6821,27.72,76,26,2.78,AR,1701211202
472,hobyo,5.3505,48.5268,26.75,72,81,6.43,SO,1701211202
473,hastings,50.8552,0.5729,4.73,41,12,3.76,GB,1701211203
474,sterling,39.0062,-77.4286,-0.06,45,20,7.72,US,1701211121
475,tolanaro,-25.0319,46.9987,23.86,87,1,5.67,MG,1701211203
476,zmigrod,51.4667,16.9056,-3.65,82,74,2.43,PL,1701211203
477,papao,-17.75,-149.55,29.82,83,100,10.94,PF,1701211204
478,malango,-2.9627,119.9001,21.31,95,100,0.39,ID,1701211204
479,mugia,43.1041,-9.2179,16.2,95,100,8.34,ES,1701211204
480,broome,42.2506,-75.833,-1.83,67,20,4.63,US,1701211204
481,mogocha,53.7333,119.7667,-19.0,91,100,1.6,RU,1701211204
482,douliu,23.7094,120.5433,22.48,66,3,0.85,TW,1701211205
483,general pico,-35.6566,-63.7568,19.87,93,82,3.21,AR,1701211205
484,kurmuk,10.55,34.2833,25.06,36,10,1.23,SD,1701211205
485,bougouni,11.417,-7.479,27.91,50,67,1.97,ML,1701211205
486,gdynia,54.5189,18.5319,-3.06,88,0,2.57,PL,1701211205
487,moa,20.6569,-74.9403,26.02,82,46,2.64,CU,1701211206
488,happy valley-goose bay,53.3168,-60.3315,2.17,93,100,1.54,CA,1701211206
489,vagharshapat,40.1656,44.2946,-1.55,59,4,1.54,AM,1701211206
490,guarapari,-20.6667,-40.4975,26.05,92,91,4.16,BR,1701211175
491,shimoda,34.6667,138.95,11.17,56,1,12.93,JP,1701211207
492,talcahuano,-36.7167,-73.1167,16.82,67,0,7.2,CL,1701211173
493,siwa oasis,29.2041,25.5195,13.94,53,15,2.23,EG,1701211207
494,mengcheng chengguanzhen,33.2661,116.566,9.5,51,100,4.1,CN,1701211207
495,choibalsan,48.0667,114.5,-19.88,83,22,6.07,MN,1701211207
496,bubaque,11.2833,-15.8333,28.26,67,8,7.9,GW,1701211208
497,dingcheng,32.1272,115.0394,9.12,59,85,3.26,CN,1701211208
498,copiapo,-27.3667,-70.3333,14.83,42,0,2.38,CL,1701211128
499,mahdia,35.5047,11.0622,16.97,64,66,2.34,TN,1701211208
500,waiuku,-37.25,174.75,19.92,74,60,4.44,NZ,1701211208
501,baharly,38.4362,57.4316,9.51,71,69,4.55,TM,1701211209
502,ngaoundere,7.3167,13.5833,21.94,35,65,0.77,CM,1701211209
503,tindouf,27.6711,-8.1474,15.76,44,0,4.95,DZ,1701211209
504,canton,23.1167,113.25,22.71,54,100,2.88,CN,1701211061
505,palu,-0.8917,119.8707,25.56,93,97,0.81,ID,1701211209
506,kone,-21.0595,164.8658,27.71,57,100,0.42,NC,1701211210
507,cody,44.5263,-109.0565,3.68,65,0,2.06,US,1701211210
508,itacare,-14.2775,-38.9967,25.6,80,9,3.91,BR,1701211210
509,gamba,-2.65,10.0,25.04,85,100,0.38,GA,1701211210
510,stanisic,45.94,19.1653,3.93,72,71,7.86,RS,1701211210
511,sirsa,29.5333,75.0167,15.94,57,36,1.94,IN,1701211211
512,chakradharpur,22.7,85.6333,18.43,63,96,0.63,IN,1701211211
513,callao,-12.0667,-77.15,21.16,73,20,7.72,PE,1701211211
514,charters towers,-20.1,146.2667,30.55,49,1,4.22,AU,1701211211
515,piti village,13.4626,144.6933,29.06,81,0,6.69,GU,1701211212
516,sao joao da ponte,-15.9292,-44.0078,24.97,39,23,2.14,BR,1701211195
517,al muwayh,22.4333,41.7583,22.62,30,5,3.5,SA,1701211212
518,grand falls-windsor,48.9332,-55.6649,4.33,92,100,4.7,CA,1701211212
519,edgewater,28.9889,-80.9023,13.08,67,100,3.99,US,1701211212
520,pacific grove,36.6177,-121.9166,19.25,63,0,4.92,US,1701211213
521,cruzeiro do sul,-29.5128,-51.9853,21.95,91,100,2.79,BR,1701211213
522,kikvidze,50.7416,43.0518,-4.12,86,7,2.6,RU,1701211213
523,richmond,37.5538,-77.4603,3.93,33,0,8.75,US,1701211032
524,ciudad acuna,29.3232,-100.9522,18.16,35,0,4.63,MX,1701211030
525,olinda,-8.0089,-34.8553,26.85,69,20,6.17,BR,1701211214
526,kaa-khem,51.6833,94.7333,-19.98,96,82,1.39,RU,1701211214
527,borovskoy,53.8,64.15,0.79,88,100,2.76,KZ,1701211214
528,gereida,11.2811,25.1414,23.85,27,11,4.6,SD,1701211215
529,sunchales,-30.944,-61.5615,29.47,63,4,3.62,AR,1701211215
530,maile,-38.9466,-72.3727,14.34,56,14,2.61,CL,1701211215
531,hilo,19.7297,-155.09,27.83,75,75,6.69,US,1701211161
532,ancud,-41.8697,-73.8203,11.27,86,35,6.19,CL,1701211215
533,sao miguel do iguacu,-25.3481,-54.2378,24.49,96,16,1.27,BR,1701211216
534,crookston,47.7741,-96.6081,5.95,69,40,3.6,US,1701211216
535,petawawa,45.9001,-77.3328,-5.23,70,40,4.63,CA,1701211216
536,sikonge,-5.6333,32.7667,18.88,80,95,1.07,TZ,1701211216
537,le pouliguen,47.2697,-2.4278,2.97,54,100,1.41,FR,1701211216
538,zeribet el oued,34.6828,6.5111,15.71,41,100,1.23,DZ,1701211217
539,severo-yeniseyskiy,60.3725,93.0408,-14.12,85,100,1.34,RU,1701211217
540,prado,-17.3411,-39.2208,25.15,85,53,5.96,BR,1701211217
541,kruisfontein,-34.0033,24.7314,15.38,72,45,8.27,ZA,1701211217
542,waingapu,-9.6567,120.2641,27.79,76,100,1.29,ID,1701211217
543,pingdingshan,33.7385,113.3012,6.63,33,98,8.1,CN,1701211218
544,mersa matruh,31.3525,27.2453,13.11,62,0,0.0,EG,1701211218
545,taseyevo,57.2169,94.8978,-19.64,95,94,1.44,RU,1701211218
546,muriti,-1.9833,32.9167,22.61,68,97,2.28,TZ,1701211218
547,trujillo,-8.116,-79.03,20.98,78,40,6.17,PE,1701211218
548,volgorechensk,57.4393,41.1555,-6.55,96,88,3.48,RU,1701211219
549,ray,23.6833,85.05,16.11,72,63,0.8,IN,1701211219
550,moose jaw,50.4001,-105.5344,5.15,52,0,8.75,CA,1701211157
551,auki,-8.7676,160.7034,29.63,70,71,0.73,SB,1701211219
552,tyre,33.2733,35.1939,14.56,57,53,2.07,LB,1701211220
553,jinka,5.65,36.65,17.91,62,51,1.33,ET,1701211220
554,junagarh,19.8667,82.9333,17.87,71,21,0.21,IN,1701211220
555,booue,-0.0921,11.9385,21.97,98,68,0.6,GA,1701211220
556,nkove,-7.95,30.85,22.53,78,87,2.52,TZ,1701211221
557,boyolangu,-8.1181,111.8935,25.05,83,67,0.36,ID,1701210933
558,richards bay,-28.783,32.0377,23.61,87,100,10.88,ZA,1701211221
559,katsuren-haebaru,26.3369,127.8719,21.43,60,0,3.09,JP,1701211221
560,thurso,58.5927,-3.5259,2.14,67,100,5.11,GB,1701211222
